[
  {
    "ward_no": 1,
    "ward_name": "Kapra",
    "circle_no": "I",
    "circle": "Kapra",
    "zone": "East Zone",
    "population": 32108,
    "lat": 17.46822,
    "lng": 78.54676,
    "coordinate_confidence": "high"
  },
  {
    "ward_no": 2,
    "ward_name": "Cherlapalli",
    "circle_no": "I",
    "circle": "Kapra",
    "zone": "East Zone",
    "population": 34729,
    "lat": 17.46424,
    "lng": 78.55458,
    "coordinate_confidence": "high"
  },
  {
    "ward_no": 3,
    "ward_name": "Mallapur",
    "circle_no": "I",
    "circle": "Kapra",
    "zone": "East Zone",
    "population": 39842,
    "lat": 17.47766,
    "lng": 78.5626,
    "coordinate_confidence": "high"
  },
  {
    "ward_no": 4,
    "ward_name": "Nacharam",
    "circle_no": "I",
    "circle": "Kapra",
    "zone": "East Zone",
    "population": 39793,
    "lat": 17.478,
    "lng": 78.55222,
    "coordinate_confidence": "high"
  },
  {
    "ward_no": 5,
    "ward_name": "Uppal",
    "circle_no": "II",
    "circle": "Uppal Kalan",
    "zone": "East Zone",
    "population": 40638,
    "lat": 17.40486,
    "lng": 78.553,
    "coordinate_confidence": "high"
  },
  {
    "ward_no": 6,
    "ward_name": "Habsiguda",
    "circle_no": "II",
    "circle": "Uppal Kalan",
    "zone": "East Zone",
    "population": 36206,
    "lat": 17.39924,
    "lng": 78.551,
    "coordinate_confidence": "high"
  },
  {
    "ward_no": 7,
    "ward_name": "Ramanthapur",
    "circle_no": "II",
    "circle": "Uppal Kalan",
    "zone": "East Zone",
    "population": 40373,
    "lat": 17.4021,
    "lng": 78.5545,
    "coordinate_confidence": "high"
  },
  {
    "ward_no": 8,
    "ward_name": "Kothapet",
    "circle_no": "III",
    "circle": "L.B. Nagar / Gaddiannaram",
    "zone": "East Zone",
    "population": 33684,
    "lat": 17.34202,
    "lng": 78.54026,
    "coordinate_confidence": "high"
  },
  {
    "ward_no": 9,
    "ward_name": "Mansoorabad",
    "circle_no": "III",
    "circle": "L.B. Nagar / Gaddiannaram",
    "zone": "East Zone",
    "population": 30718,
    "lat": 17.34748,
    "lng": 78.55356,
    "coordinate_confidence": "high"
  },
  {
    "ward_no": 10,
    "ward_name": "Hayathnagar",
    "circle_no": "III",
    "circle": "L.B. Nagar / Gaddiannaram",
    "zone": "East Zone",
    "population": 35467,
    "lat": 17.35648,
    "lng": 78.55202,
    "coordinate_confidence": "high"
  },
  {
    "ward_no": 11,
    "ward_name": "Vansathalipuram",
    "circle_no": "III",
    "circle": "L.B. Nagar / Gaddiannaram",
    "zone": "East Zone",
    "population": 33814,
    "lat": 17.353,
    "lng": 78.54944,
    "coordinate_confidence": "high"
  },
  {
    "ward_no": 12,
    "ward_name": "Karmanghat",
    "circle_no": "III",
    "circle": "L.B. Nagar / Gaddiannaram",
    "zone": "East Zone",
    "population": 31143,
    "lat": 17.34224,
    "lng": 78.54616,
    "coordinate_confidence": "high"
  },
  {
    "ward_no": 13,
    "ward_name": "Champapet",
    "circle_no": "III",
    "circle": "L.B. Nagar / Gaddiannaram",
    "zone": "East Zone",
    "population": 33516,
    "lat": 17.35746,
    "lng": 78.55988,
    "coordinate_confidence": "high"
  },
  {
    "ward_no": 14,
    "ward_name": "Saroornagar",
    "circle_no": "III",
    "circle": "L.B. Nagar / Gaddiannaram",
    "zone": "East Zone",
    "population": 30154,
    "lat": 17.34076,
    "lng": 78.54972,
    "coordinate_confidence": "high"
  },
  {
    "ward_no": 15,
    "ward_name": "Rama Krishna Puram",
    "circle_no": "III",
    "circle": "L.B. Nagar / Gaddiannaram",
    "zone": "East Zone",
    "population": 31358,
    "lat": 17.35206,
    "lng": 78.54254,
    "coordinate_confidence": "high"
  },
  {
    "ward_no": 17,
    "ward_name": "P&T Colony",
    "circle_no": "III",
    "circle": "L.B. Nagar / Gaddiannaram",
    "zone": "East Zone",
    "population": 31248,
    "lat": 17.35494,
    "lng": 78.54676,
    "coordinate_confidence": "high"
  },
  {
    "ward_no": 18,
    "ward_name": "Moosarambagh",
    "circle_no": "IV",
    "circle": "Earstwhile Circle - I",
    "zone": "South Zone",
    "population": 33809,
    "lat": 17.3619,
    "lng": 78.4867,
    "coordinate_confidence": "medium-high"
  },
  {
    "ward_no": 19,
    "ward_name": "Saidabad",
    "circle_no": "IV",
    "circle": "Earstwhile Circle - I",
    "zone": "South Zone",
    "population": 39453,
    "lat": 17.35664,
    "lng": 78.49648,
    "coordinate_confidence": "medium-high"
  },
  {
    "ward_no": 20,
    "ward_name": "I.S.Sadan",
    "circle_no": "IV",
    "circle": "Earstwhile Circle - I",
    "zone": "South Zone",
    "population": 32271,
    "lat": 17.36192,
    "lng": 78.4959,
    "coordinate_confidence": "medium-high"
  },
  {
    "ward_no": 21,
    "ward_name": "Santoshnagar",
    "circle_no": "IV",
    "circle": "Earstwhile Circle - I",
    "zone": "South Zone",
    "population": 33627,
    "lat": 17.35722,
    "lng": 78.48558,
    "coordinate_confidence": "medium-high"
  },
  {
    "ward_no": 22,
    "ward_name": "Riyasat Nagar",
    "circle_no": "IV",
    "circle": "Earstwhile Circle - I",
    "zone": "South Zone",
    "population": 40102,
    "lat": 17.36394,
    "lng": 78.49626,
    "coordinate_confidence": "medium-high"
  },
  {
    "ward_no": 23,
    "ward_name": "Kanchanbagh",
    "circle_no": "IV",
    "circle": "Earstwhile Circle - I",
    "zone": "South Zone",
    "population": 35866,
    "lat": 17.35618,
    "lng": 78.49208,
    "coordinate_confidence": "medium-high"
  },
  {
    "ward_no": 24,
    "ward_name": "Barkas",
    "circle_no": "IV",
    "circle": "Earstwhile Circle - I",
    "zone": "South Zone",
    "population": 34288,
    "lat": 17.36038,
    "lng": 78.48936,
    "coordinate_confidence": "medium-high"
  },
  {
    "ward_no": 25,
    "ward_name": "Chandrayan Gutta",
    "circle_no": "IV",
    "circle": "Earstwhile Circle - I",
    "zone": "South Zone",
    "population": 34191,
    "lat": 17.36048,
    "lng": 78.4981,
    "coordinate_confidence": "medium-high"
  },
  {
    "ward_no": 26,
    "ward_name": "Jangammet",
    "circle_no": "IV",
    "circle": "Earstwhile Circle - I",
    "zone": "South Zone",
    "population": 39617,
    "lat": 17.36518,
    "lng": 78.49194,
    "coordinate_confidence": "medium-high"
  },
  {
    "ward_no": 27,
    "ward_name": "Uppuguda",
    "circle_no": "IV",
    "circle": "Earstwhile Circle - I",
    "zone": "South Zone",
    "population": 38068,
    "lat": 17.35256,
    "lng": 78.4975,
    "coordinate_confidence": "medium-high"
  },
  {
    "ward_no": 28,
    "ward_name": "Lalithabagh",
    "circle_no": "IV",
    "circle": "Earstwhile Circle - I",
    "zone": "South Zone",
    "population": 40198,
    "lat": 17.35914,
    "lng": 78.4977,
    "coordinate_confidence": "medium-high"
  },
  {
    "ward_no": 29,
    "ward_name": "Rain Bazar",
    "circle_no": "IV",
    "circle": "Earstwhile Circle - I",
    "zone": "South Zone",
    "population": 37048,
    "lat": 17.36094,
    "lng": 78.49376,
    "coordinate_confidence": "medium-high"
  },
  {
    "ward_no": 30,
    "ward_name": "Kurmaguda",
    "circle_no": "IV",
    "circle": "Earstwhile Circle - I",
    "zone": "South Zone",
    "population": 39227,
    "lat": 17.3567,
    "lng": 78.48902,
    "coordinate_confidence": "medium-high"
  },
  {
    "ward_no": 31,
    "ward_name": "Chavni",
    "circle_no": "IV",
    "circle": "Earstwhile Circle - I",
    "zone": "South Zone",
    "population": 30347,
    "lat": 17.36402,
    "lng": 78.4856,
    "coordinate_confidence": "medium-high"
  },
  {
    "ward_no": 32,
    "ward_name": "Akberbagh",
    "circle_no": "IV",
    "circle": "Earstwhile Circle - I",
    "zone": "South Zone",
    "population": 39667,
    "lat": 17.36218,
    "lng": 78.49826,
    "coordinate_confidence": "medium-high"
  },
  {
    "ward_no": 33,
    "ward_name": "Saleem Nagar",
    "circle_no": "IV",
    "circle": "Earstwhile Circle - I",
    "zone": "South Zone",
    "population": 33678,
    "lat": 17.35908,
    "lng": 78.49644,
    "coordinate_confidence": "medium-high"
  },
  {
    "ward_no": 34,
    "ward_name": "Old Malakpet",
    "circle_no": "IV",
    "circle": "Earstwhile Circle - I",
    "zone": "South Zone",
    "population": 39711,
    "lat": 17.35826,
    "lng": 78.4981,
    "coordinate_confidence": "medium-high"
  },
  {
    "ward_no": 35,
    "ward_name": "Azampura",
    "circle_no": "IV",
    "circle": "Earstwhile Circle - I",
    "zone": "South Zone",
    "population": 33876,
    "lat": 17.35672,
    "lng": 78.49396,
    "coordinate_confidence": "medium-high"
  },
  {
    "ward_no": 36,
    "ward_name": "Dabeerpura",
    "circle_no": "IV",
    "circle": "Earstwhile Circle - I",
    "zone": "South Zone",
    "population": 28415,
    "lat": 17.359,
    "lng": 78.49186,
    "coordinate_confidence": "medium-high"
  },
  {
    "ward_no": 37,
    "ward_name": "Noorkhan Bazar",
    "circle_no": "IV",
    "circle": "Earstwhile Circle - I",
    "zone": "South Zone",
    "population": 30420,
    "lat": 17.3469,
    "lng": 78.48544,
    "coordinate_confidence": "medium-high"
  },
  {
    "ward_no": 38,
    "ward_name": "Pathergatti",
    "circle_no": "IV",
    "circle": "Earstwhile Circle - I",
    "zone": "South Zone",
    "population": 33662,
    "lat": 17.35708,
    "lng": 78.49092,
    "coordinate_confidence": "medium-high"
  },
  {
    "ward_no": 39,
    "ward_name": "Talabchanchalam",
    "circle_no": "IV",
    "circle": "Earstwhile Circle - I",
    "zone": "South Zone",
    "population": 40518,
    "lat": 17.35712,
    "lng": 78.48936,
    "coordinate_confidence": "medium-high"
  },
  {
    "ward_no": 40,
    "ward_name": "Moghalpura",
    "circle_no": "IV",
    "circle": "Earstwhile Circle - I",
    "zone": "South Zone",
    "population": 32998,
    "lat": 17.35992,
    "lng": 78.48918,
    "coordinate_confidence": "medium-high"
  },
  {
    "ward_no": 41,
    "ward_name": "Gowlipura",
    "circle_no": "IV",
    "circle": "Earstwhile Circle - I",
    "zone": "South Zone",
    "population": 40934,
    "lat": 17.35632,
    "lng": 78.48874,
    "coordinate_confidence": "medium-high"
  },
  {
    "ward_no": 42,
    "ward_name": "Aliabad",
    "circle_no": "IV",
    "circle": "Earstwhile Circle - I",
    "zone": "South Zone",
    "population": 39235,
    "lat": 17.34948,
    "lng": 78.5049,
    "coordinate_confidence": "medium-high"
  },
  {
    "ward_no": 43,
    "ward_name": "Falaknuma",
    "circle_no": "V",
    "circle": "Earstwhile Circle - II",
    "zone": "South Zone",
    "population": 37292,
    "lat": 17.3581,
    "lng": 78.48472,
    "coordinate_confidence": "medium-high"
  },
  {
    "ward_no": 44,
    "ward_name": "Nawabsaheb Kunta",
    "circle_no": "V",
    "circle": "Earstwhile Circle - II",
    "zone": "South Zone",
    "population": 37354,
    "lat": 17.35064,
    "lng": 78.47748,
    "coordinate_confidence": "medium-high"
  },
  {
    "ward_no": 45,
    "ward_name": "Jahanuma",
    "circle_no": "V",
    "circle": "Earstwhile Circle - II",
    "zone": "South Zone",
    "population": 36278,
    "lat": 17.3513,
    "lng": 78.48374,
    "coordinate_confidence": "medium-high"
  },
  {
    "ward_no": 46,
    "ward_name": "Fatheh Darwaza",
    "circle_no": "V",
    "circle": "Earstwhile Circle - II",
    "zone": "South Zone",
    "population": 38923,
    "lat": 17.35498,
    "lng": 78.47536,
    "coordinate_confidence": "medium-high"
  },
  {
    "ward_no": 47,
    "ward_name": "Shalibanda",
    "circle_no": "V",
    "circle": "Earstwhile Circle - II",
    "zone": "South Zone",
    "population": 37551,
    "lat": 17.36602,
    "lng": 78.48104,
    "coordinate_confidence": "medium-high"
  },
  {
    "ward_no": 48,
    "ward_name": "Hussain Alam",
    "circle_no": "V",
    "circle": "Earstwhile Circle - II",
    "zone": "South Zone",
    "population": 31942,
    "lat": 17.36424,
    "lng": 78.47966,
    "coordinate_confidence": "medium-high"
  },
  {
    "ward_no": 49,
    "ward_name": "Ghansi Bazar",
    "circle_no": "V",
    "circle": "Earstwhile Circle - II",
    "zone": "South Zone",
    "population": 38474,
    "lat": 17.34924,
    "lng": 78.47796,
    "coordinate_confidence": "medium-high"
  },
  {
    "ward_no": 50,
    "ward_name": "Begum Bazar",
    "circle_no": "V",
    "circle": "Earstwhile Circle - II",
    "zone": "South Zone",
    "population": 32361,
    "lat": 17.35728,
    "lng": 78.47642,
    "coordinate_confidence": "medium-high"
  },
  {
    "ward_no": 51,
    "ward_name": "Gosha Mahal",
    "circle_no": "V",
    "circle": "Earstwhile Circle - II",
    "zone": "South Zone",
    "population": 32204,
    "lat": 17.34732,
    "lng": 78.48646,
    "coordinate_confidence": "medium-high"
  },
  {
    "ward_no": 52,
    "ward_name": "Dhoolpet",
    "circle_no": "V",
    "circle": "Earstwhile Circle - II",
    "zone": "South Zone",
    "population": 31913,
    "lat": 17.3606,
    "lng": 78.47288,
    "coordinate_confidence": "medium-high"
  },
  {
    "ward_no": 53,
    "ward_name": "Puranapul",
    "circle_no": "V",
    "circle": "Earstwhile Circle - II",
    "zone": "South Zone",
    "population": 36062,
    "lat": 17.35388,
    "lng": 78.47854,
    "coordinate_confidence": "medium-high"
  },
  {
    "ward_no": 54,
    "ward_name": "Doodbowli",
    "circle_no": "V",
    "circle": "Earstwhile Circle - II",
    "zone": "South Zone",
    "population": 32281,
    "lat": 17.35208,
    "lng": 78.47478,
    "coordinate_confidence": "medium-high"
  },
  {
    "ward_no": 55,
    "ward_name": "Ramnaspura",
    "circle_no": "V",
    "circle": "Earstwhile Circle - II",
    "zone": "South Zone",
    "population": 30497,
    "lat": 17.34766,
    "lng": 78.471,
    "coordinate_confidence": "medium-high"
  },
  {
    "ward_no": 56,
    "ward_name": "Kishanbagh",
    "circle_no": "V",
    "circle": "Earstwhile Circle - II",
    "zone": "South Zone",
    "population": 37571,
    "lat": 17.3644,
    "lng": 78.48656,
    "coordinate_confidence": "medium-high"
  },
  {
    "ward_no": 57,
    "ward_name": "Shivarampally",
    "circle_no": "VI",
    "circle": "Ragendra Nagar",
    "zone": "South Zone",
    "population": 34699,
    "lat": 17.33586,
    "lng": 78.41784,
    "coordinate_confidence": "high"
  },
  {
    "ward_no": 58,
    "ward_name": "Mylardevpally",
    "circle_no": "VI",
    "circle": "Ragendra Nagar",
    "zone": "South Zone",
    "population": 34972,
    "lat": 17.33478,
    "lng": 78.42588,
    "coordinate_confidence": "high"
  },
  {
    "ward_no": 59,
    "ward_name": "Rajendra Nagar",
    "circle_no": "VI",
    "circle": "Ragendra Nagar",
    "zone": "South Zone",
    "population": 36516,
    "lat": 17.33368,
    "lng": 78.41932,
    "coordinate_confidence": "high"
  },
  {
    "ward_no": 60,
    "ward_name": "Attapur",
    "circle_no": "VI",
    "circle": "Ragendra Nagar",
    "zone": "South Zone",
    "population": 37053,
    "lat": 17.335,
    "lng": 78.42116,
    "coordinate_confidence": "high"
  },
  {
    "ward_no": 61,
    "ward_name": "Karwan",
    "circle_no": "VII",
    "circle": "Earstwhile - Circle IV",
    "zone": "Central Zone",
    "population": 35111,
    "lat": 17.39914,
    "lng": 78.4267,
    "coordinate_confidence": "medium-high"
  },
  {
    "ward_no": 62,
    "ward_name": "Ziaguda",
    "circle_no": "VII",
    "circle": "Earstwhile - Circle IV",
    "zone": "Central Zone",
    "population": 36701,
    "lat": 17.38752,
    "lng": 78.42062,
    "coordinate_confidence": "medium-high"
  },
  {
    "ward_no": 63,
    "ward_name": "Dattathreyanagar",
    "circle_no": "VII",
    "circle": "Earstwhile - Circle IV",
    "zone": "Central Zone",
    "population": 39586,
    "lat": 17.39792,
    "lng": 78.43154,
    "coordinate_confidence": "medium-high"
  },
  {
    "ward_no": 64,
    "ward_name": "Manghalhat",
    "circle_no": "VII",
    "circle": "Earstwhile - Circle IV",
    "zone": "Central Zone",
    "population": 37098,
    "lat": 17.39778,
    "lng": 78.4328,
    "coordinate_confidence": "medium-high"
  },
  {
    "ward_no": 65,
    "ward_name": "Asifnagar",
    "circle_no": "VII",
    "circle": "Earstwhile - Circle IV",
    "zone": "Central Zone",
    "population": 38486,
    "lat": 17.40094,
    "lng": 78.42226,
    "coordinate_confidence": "medium-high"
  },
  {
    "ward_no": 66,
    "ward_name": "Muradnagar",
    "circle_no": "VII",
    "circle": "Earstwhile - Circle IV",
    "zone": "Central Zone",
    "population": 34581,
    "lat": 17.39706,
    "lng": 78.42664,
    "coordinate_confidence": "medium-high"
  },
  {
    "ward_no": 67,
    "ward_name": "Mehdipatnam",
    "circle_no": "VII",
    "circle": "Earstwhile - Circle IV",
    "zone": "Central Zone",
    "population": 34785,
    "lat": 17.38216,
    "lng": 78.42652,
    "coordinate_confidence": "medium-high"
  },
  {
    "ward_no": 68,
    "ward_name": "Gudimalkapur",
    "circle_no": "VII",
    "circle": "Earstwhile - Circle IV",
    "zone": "Central Zone",
    "population": 39481,
    "lat": 17.39086,
    "lng": 78.43344,
    "coordinate_confidence": "medium-high"
  },
  {
    "ward_no": 69,
    "ward_name": "Lunger House",
    "circle_no": "VII",
    "circle": "Earstwhile - Circle IV",
    "zone": "Central Zone",
    "population": 35791,
    "lat": 17.393,
    "lng": 78.42688,
    "coordinate_confidence": "medium-high"
  },
  {
    "ward_no": 70,
    "ward_name": "Tolichowli",
    "circle_no": "VII",
    "circle": "Earstwhile - Circle IV",
    "zone": "Central Zone",
    "population": 39467,
    "lat": 17.38258,
    "lng": 78.41918,
    "coordinate_confidence": "medium-high"
  },
  {
    "ward_no": 71,
    "ward_name": "Nanalnagar",
    "circle_no": "VII",
    "circle": "Earstwhile - Circle IV",
    "zone": "Central Zone",
    "population": 36014,
    "lat": 17.38736,
    "lng": 78.42002,
    "coordinate_confidence": "medium-high"
  },
  {
    "ward_no": 72,
    "ward_name": "Ahmed Nagar",
    "circle_no": "VII",
    "circle": "Earstwhile - Circle IV",
    "zone": "Central Zone",
    "population": 33342,
    "lat": 17.38338,
    "lng": 78.42854,
    "coordinate_confidence": "medium-high"
  },
  {
    "ward_no": 73,
    "ward_name": "Vijayanagar Colony",
    "circle_no": "VII",
    "circle": "Earstwhile - Circle IV",
    "zone": "Central Zone",
    "population": 32092,
    "lat": 17.3917,
    "lng": 78.42928,
    "coordinate_confidence": "medium-high"
  },
  {
    "ward_no": 74,
    "ward_name": "Chintalbasti",
    "circle_no": "VII",
    "circle": "Earstwhile - Circle IV",
    "zone": "Central Zone",
    "population": 31943,
    "lat": 17.38714,
    "lng": 78.4214,
    "coordinate_confidence": "medium-high"
  },
  {
    "ward_no": 75,
    "ward_name": "Mallepally",
    "circle_no": "VII",
    "circle": "Earstwhile - Circle IV",
    "zone": "Central Zone",
    "population": 32559,
    "lat": 17.39822,
    "lng": 78.42838,
    "coordinate_confidence": "medium-high"
  },
  {
    "ward_no": 76,
    "ward_name": "Red Hills",
    "circle_no": "VII",
    "circle": "Earstwhile - Circle IV",
    "zone": "Central Zone",
    "population": 31126,
    "lat": 17.38224,
    "lng": 78.43678,
    "coordinate_confidence": "medium-high"
  },
  {
    "ward_no": 77,
    "ward_name": "Jambagh",
    "circle_no": "VIII",
    "circle": "Earstwhile - Circle VI",
    "zone": "Central Zone",
    "population": 40350,
    "lat": 17.39424,
    "lng": 78.4792,
    "coordinate_confidence": "high"
  },
  {
    "ward_no": 78,
    "ward_name": "Gunfoundry",
    "circle_no": "VIII",
    "circle": "Earstwhile - Circle VI",
    "zone": "Central Zone",
    "population": 38497,
    "lat": 17.39318,
    "lng": 78.47474,
    "coordinate_confidence": "high"
  },
  {
    "ward_no": 79,
    "ward_name": "Sultan Bazar",
    "circle_no": "VIII",
    "circle": "Earstwhile - Circle VI",
    "zone": "Central Zone",
    "population": 39459,
    "lat": 17.3845,
    "lng": 78.48104,
    "coordinate_confidence": "high"
  },
  {
    "ward_no": 80,
    "ward_name": "Himayathnagar",
    "circle_no": "IX",
    "circle": "Earstwhile - Circle III",
    "zone": "Central Zone",
    "population": 39773,
    "lat": 17.3913,
    "lng": 78.49766,
    "coordinate_confidence": "high"
  },
  {
    "ward_no": 81,
    "ward_name": "Barkatpura",
    "circle_no": "IX",
    "circle": "Earstwhile - Circle III",
    "zone": "Central Zone",
    "population": 35610,
    "lat": 17.3983,
    "lng": 78.50746,
    "coordinate_confidence": "high"
  },
  {
    "ward_no": 82,
    "ward_name": "Kachiguda",
    "circle_no": "IX",
    "circle": "Earstwhile - Circle III",
    "zone": "Central Zone",
    "population": 39411,
    "lat": 17.39896,
    "lng": 78.48986,
    "coordinate_confidence": "high"
  },
  {
    "ward_no": 83,
    "ward_name": "Golnaka",
    "circle_no": "IX",
    "circle": "Earstwhile - Circle III",
    "zone": "Central Zone",
    "population": 35921,
    "lat": 17.39206,
    "lng": 78.50802,
    "coordinate_confidence": "high"
  },
  {
    "ward_no": 84,
    "ward_name": "Amberpet",
    "circle_no": "IX",
    "circle": "Earstwhile - Circle III",
    "zone": "Central Zone",
    "population": 33069,
    "lat": 17.40546,
    "lng": 78.49178,
    "coordinate_confidence": "high"
  },
  {
    "ward_no": 85,
    "ward_name": "Bagh Amberpet",
    "circle_no": "IX",
    "circle": "Earstwhile - Circle III",
    "zone": "Central Zone",
    "population": 35347,
    "lat": 17.39942,
    "lng": 78.4973,
    "coordinate_confidence": "high"
  },
  {
    "ward_no": 86,
    "ward_name": "Vidyanagar",
    "circle_no": "IX",
    "circle": "Earstwhile - Circle III",
    "zone": "Central Zone",
    "population": 32032,
    "lat": 17.39538,
    "lng": 78.4911,
    "coordinate_confidence": "high"
  },
  {
    "ward_no": 87,
    "ward_name": "Nallakunta",
    "circle_no": "IX",
    "circle": "Earstwhile - Circle III",
    "zone": "Central Zone",
    "population": 35717,
    "lat": 17.4049,
    "lng": 78.49212,
    "coordinate_confidence": "high"
  },
  {
    "ward_no": 88,
    "ward_name": "Bagh Lingampally",
    "circle_no": "X",
    "circle": "Earstwhile - Circle V",
    "zone": "Central Zone",
    "population": 39690,
    "lat": 17.41844,
    "lng": 78.42522,
    "coordinate_confidence": "high"
  },
  {
    "ward_no": 89,
    "ward_name": "Adikmet",
    "circle_no": "X",
    "circle": "Earstwhile - Circle V",
    "zone": "Central Zone",
    "population": 39128,
    "lat": 17.43392,
    "lng": 78.42842,
    "coordinate_confidence": "high"
  },
  {
    "ward_no": 90,
    "ward_name": "Ramnagar",
    "circle_no": "X",
    "circle": "Earstwhile - Circle V",
    "zone": "Central Zone",
    "population": 33226,
    "lat": 17.43608,
    "lng": 78.44164,
    "coordinate_confidence": "high"
  },
  {
    "ward_no": 91,
    "ward_name": "Musheerabad",
    "circle_no": "X",
    "circle": "Earstwhile - Circle V",
    "zone": "Central Zone",
    "population": 36698,
    "lat": 17.41964,
    "lng": 78.43692,
    "coordinate_confidence": "high"
  },
  {
    "ward_no": 92,
    "ward_name": "Bholakpur",
    "circle_no": "X",
    "circle": "Earstwhile - Circle V",
    "zone": "Central Zone",
    "population": 34672,
    "lat": 17.41796,
    "lng": 78.42912,
    "coordinate_confidence": "high"
  },
  {
    "ward_no": 93,
    "ward_name": "Gandhinagar",
    "circle_no": "X",
    "circle": "Earstwhile - Circle V",
    "zone": "Central Zone",
    "population": 36343,
    "lat": 17.42506,
    "lng": 78.4253,
    "coordinate_confidence": "high"
  },
  {
    "ward_no": 94,
    "ward_name": "Kavadiguda",
    "circle_no": "X",
    "circle": "Earstwhile - Circle V",
    "zone": "Central Zone",
    "population": 33082,
    "lat": 17.42914,
    "lng": 78.44188,
    "coordinate_confidence": "high"
  },
  {
    "ward_no": 95,
    "ward_name": "Domalguda",
    "circle_no": "X",
    "circle": "Earstwhile - Circle V",
    "zone": "Central Zone",
    "population": 32014,
    "lat": 17.41706,
    "lng": 78.43966,
    "coordinate_confidence": "high"
  },
  {
    "ward_no": 96,
    "ward_name": "Khairtabad",
    "circle_no": "X",
    "circle": "Earstwhile - Circle V",
    "zone": "Central Zone",
    "population": 34740,
    "lat": 17.4358,
    "lng": 78.43606,
    "coordinate_confidence": "high"
  },
  {
    "ward_no": 97,
    "ward_name": "Panjagutta",
    "circle_no": "X",
    "circle": "Earstwhile - Circle V",
    "zone": "Central Zone",
    "population": 37548,
    "lat": 17.42796,
    "lng": 78.43166,
    "coordinate_confidence": "high"
  },
  {
    "ward_no": 98,
    "ward_name": "Somajiguda",
    "circle_no": "X",
    "circle": "Earstwhile - Circle V",
    "zone": "Central Zone",
    "population": 40170,
    "lat": 17.43176,
    "lng": 78.4281,
    "coordinate_confidence": "high"
  },
  {
    "ward_no": 99,
    "ward_name": "Ameerpet",
    "circle_no": "X",
    "circle": "Earstwhile - Circle V",
    "zone": "Central Zone",
    "population": 34126,
    "lat": 17.4185,
    "lng": 78.423,
    "coordinate_confidence": "high"
  },
  {
    "ward_no": 100,
    "ward_name": "Balkampet",
    "circle_no": "X",
    "circle": "Earstwhile - Circle V",
    "zone": "Central Zone",
    "population": 36740,
    "lat": 17.43438,
    "lng": 78.43742,
    "coordinate_confidence": "high"
  },
  {
    "ward_no": 101,
    "ward_name": "Sanathnagar",
    "circle_no": "X",
    "circle": "Earstwhile - Circle V",
    "zone": "Central Zone",
    "population": 30230,
    "lat": 17.42328,
    "lng": 78.43782,
    "coordinate_confidence": "high"
  },
  {
    "ward_no": 102,
    "ward_name": "Erragadda",
    "circle_no": "X",
    "circle": "Earstwhile - Circle V",
    "zone": "Central Zone",
    "population": 40698,
    "lat": 17.42592,
    "lng": 78.42672,
    "coordinate_confidence": "high"
  },
  {
    "ward_no": 103,
    "ward_name": "Vengalrao Nagar",
    "circle_no": "X",
    "circle": "Earstwhile - Circle V",
    "zone": "Central Zone",
    "population": 36367,
    "lat": 17.43684,
    "lng": 78.44106,
    "coordinate_confidence": "high"
  },
  {
    "ward_no": 104,
    "ward_name": "Srinagar Colony",
    "circle_no": "X",
    "circle": "Earstwhile - Circle V",
    "zone": "Central Zone",
    "population": 38294,
    "lat": 17.42748,
    "lng": 78.43058,
    "coordinate_confidence": "high"
  },
  {
    "ward_no": 105,
    "ward_name": "Banjara Hills",
    "circle_no": "X",
    "circle": "Earstwhile - Circle V",
    "zone": "Central Zone",
    "population": 53197,
    "lat": 17.42994,
    "lng": 78.42474,
    "coordinate_confidence": "high"
  },
  {
    "ward_no": 106,
    "ward_name": "Yousufguda",
    "circle_no": "X",
    "circle": "Earstwhile - Circle V",
    "zone": "Central Zone",
    "population": 38007,
    "lat": 17.4221,
    "lng": 78.42332,
    "coordinate_confidence": "high"
  },
  {
    "ward_no": 107,
    "ward_name": "Rahamath Nagar",
    "circle_no": "X",
    "circle": "Earstwhile - Circle V",
    "zone": "Central Zone",
    "population": 39852,
    "lat": 17.4334,
    "lng": 78.4278,
    "coordinate_confidence": "high"
  },
  {
    "ward_no": 108,
    "ward_name": "Borabanda",
    "circle_no": "X",
    "circle": "Earstwhile - Circle V",
    "zone": "Central Zone",
    "population": 40145,
    "lat": 17.42906,
    "lng": 78.42996,
    "coordinate_confidence": "high"
  },
  {
    "ward_no": 109,
    "ward_name": "Jubilee Hills",
    "circle_no": "X",
    "circle": "Earstwhile - Circle V",
    "zone": "Central Zone",
    "population": 27094,
    "lat": 17.42638,
    "lng": 78.4285,
    "coordinate_confidence": "high"
  },
  {
    "ward_no": 110,
    "ward_name": "Shaikpet",
    "circle_no": "X",
    "circle": "Earstwhile - Circle V",
    "zone": "Central Zone",
    "population": 32127,
    "lat": 17.43328,
    "lng": 78.4262,
    "coordinate_confidence": "high"
  },
  {
    "ward_no": 111,
    "ward_name": "Gachibowli",
    "circle_no": "XI & XII",
    "circle": "Serilingampally (North & South)",
    "zone": "North Zone",
    "population": 39304,
    "lat": 17.47776,
    "lng": 78.34276,
    "coordinate_confidence": "medium"
  },
  {
    "ward_no": 112,
    "ward_name": "Serilingampally",
    "circle_no": "XI & XII",
    "circle": "Serilingampally (North & South)",
    "zone": "North Zone",
    "population": 37522,
    "lat": 17.47946,
    "lng": 78.35082,
    "coordinate_confidence": "medium"
  },
  {
    "ward_no": 113,
    "ward_name": "Hafeezpet",
    "circle_no": "XI & XII",
    "circle": "Serilingampally (North & South)",
    "zone": "North Zone",
    "population": 36977,
    "lat": 17.4659,
    "lng": 78.34804,
    "coordinate_confidence": "medium"
  },
  {
    "ward_no": 114,
    "ward_name": "Chanda Nagar",
    "circle_no": "XI & XII",
    "circle": "Serilingampally (North & South)",
    "zone": "North Zone",
    "population": 39561,
    "lat": 17.47738,
    "lng": 78.33246,
    "coordinate_confidence": "medium"
  },
  {
    "ward_no": 115,
    "ward_name": "Rama Chandra Puram",
    "circle_no": "XIII",
    "circle": "Ramachandra Puram",
    "zone": "North Zone",
    "population": 47340,
    "lat": 17.52168,
    "lng": 78.28816,
    "coordinate_confidence": "medium-high"
  },
  {
    "ward_no": 116,
    "ward_name": "Patancheruvu",
    "circle_no": "XIII",
    "circle": "Patancheru",
    "zone": "North Zone",
    "population": 40273,
    "lat": 17.52326,
    "lng": 78.28742,
    "coordinate_confidence": "medium-high"
  },
  {
    "ward_no": 117,
    "ward_name": "KPHB Colony",
    "circle_no": "XIV",
    "circle": "Kukatpally",
    "zone": "North Zone",
    "population": 32632,
    "lat": 17.47128,
    "lng": 78.40862,
    "coordinate_confidence": "high"
  },
  {
    "ward_no": 118,
    "ward_name": "Moosapet",
    "circle_no": "XIV",
    "circle": "Kukatpally",
    "zone": "North Zone",
    "population": 32817,
    "lat": 17.48642,
    "lng": 78.40806,
    "coordinate_confidence": "high"
  },
  {
    "ward_no": 119,
    "ward_name": "Mothinagar",
    "circle_no": "XIV",
    "circle": "Kukatpally",
    "zone": "North Zone",
    "population": 38290,
    "lat": 17.48934,
    "lng": 78.40914,
    "coordinate_confidence": "high"
  },
  {
    "ward_no": 120,
    "ward_name": "Fatheh Nagar",
    "circle_no": "XIV",
    "circle": "Kukatpally",
    "zone": "North Zone",
    "population": 41519,
    "lat": 17.48892,
    "lng": 78.41648,
    "coordinate_confidence": "high"
  },
  {
    "ward_no": 121,
    "ward_name": "Old Bowenpally",
    "circle_no": "XIV",
    "circle": "Kukatpally",
    "zone": "North Zone",
    "population": 35969,
    "lat": 17.47868,
    "lng": 78.41814,
    "coordinate_confidence": "high"
  },
  {
    "ward_no": 122,
    "ward_name": "Kukatpally",
    "circle_no": "XIV",
    "circle": "Kukatpally",
    "zone": "North Zone",
    "population": 34346,
    "lat": 17.47138,
    "lng": 78.40394,
    "coordinate_confidence": "high"
  },
  {
    "ward_no": 123,
    "ward_name": "Vivekananda Nagar Colony",
    "circle_no": "XIV",
    "circle": "Kukatpally",
    "zone": "North Zone",
    "population": 37450,
    "lat": 17.48616,
    "lng": 78.4015,
    "coordinate_confidence": "high"
  },
  {
    "ward_no": 124,
    "ward_name": "Hydernagar",
    "circle_no": "XIV",
    "circle": "Kukatpally",
    "zone": "North Zone",
    "population": 39266,
    "lat": 17.47042,
    "lng": 78.40056,
    "coordinate_confidence": "high"
  },
  {
    "ward_no": 125,
    "ward_name": "Gajula Ramaram",
    "circle_no": "XV",
    "circle": "Qutubullapur",
    "zone": "North Zone",
    "population": 35187,
    "lat": 17.52254,
    "lng": 78.44296,
    "coordinate_confidence": "medium-high"
  },
  {
    "ward_no": 126,
    "ward_name": "Jagadgiri Gutta",
    "circle_no": "XV",
    "circle": "Qutubullapur",
    "zone": "North Zone",
    "population": 32857,
    "lat": 17.51788,
    "lng": 78.45166,
    "coordinate_confidence": "medium-high"
  },
  {
    "ward_no": 127,
    "ward_name": "Chintal",
    "circle_no": "XV",
    "circle": "Qutubullapur",
    "zone": "North Zone",
    "population": 31595,
    "lat": 17.522,
    "lng": 78.44228,
    "coordinate_confidence": "medium-high"
  },
  {
    "ward_no": 128,
    "ward_name": "Shapur Nagarr",
    "circle_no": "XV",
    "circle": "Qutubullapur",
    "zone": "North Zone",
    "population": 34662,
    "lat": 17.51708,
    "lng": 78.4414,
    "coordinate_confidence": "medium-high"
  },
  {
    "ward_no": 129,
    "ward_name": "Suraram Colony",
    "circle_no": "XV",
    "circle": "Qutubullapur",
    "zone": "North Zone",
    "population": 33041,
    "lat": 17.51102,
    "lng": 78.43906,
    "coordinate_confidence": "medium-high"
  },
  {
    "ward_no": 130,
    "ward_name": "Jeedimetla",
    "circle_no": "XV",
    "circle": "Qutubullapur",
    "zone": "North Zone",
    "population": 32147,
    "lat": 17.51184,
    "lng": 78.44432,
    "coordinate_confidence": "medium-high"
  },
  {
    "ward_no": 131,
    "ward_name": "Qutubullapur",
    "circle_no": "XV",
    "circle": "Qutubullapur",
    "zone": "North Zone",
    "population": 31619,
    "lat": 17.50542,
    "lng": 78.4536,
    "coordinate_confidence": "medium-high"
  },
  {
    "ward_no": 132,
    "ward_name": "Alwal",
    "circle_no": "XVI",
    "circle": "Alwal",
    "zone": "North Zone",
    "population": 38474,
    "lat": 17.49276,
    "lng": 78.50722,
    "coordinate_confidence": "high"
  },
  {
    "ward_no": 133,
    "ward_name": "Macha Bollaram",
    "circle_no": "XVI",
    "circle": "Alwal",
    "zone": "North Zone",
    "population": 36275,
    "lat": 17.49202,
    "lng": 78.50616,
    "coordinate_confidence": "high"
  },
  {
    "ward_no": 134,
    "ward_name": "Yapral",
    "circle_no": "XVI",
    "circle": "Alwal",
    "zone": "North Zone",
    "population": 30987,
    "lat": 17.49942,
    "lng": 78.51382,
    "coordinate_confidence": "high"
  },
  {
    "ward_no": 135,
    "ward_name": "Defence Colony",
    "circle_no": "XVII",
    "circle": "Malkajgiri",
    "zone": "North Zone",
    "population": 40688,
    "lat": 17.45636,
    "lng": 78.53184,
    "coordinate_confidence": "high"
  },
  {
    "ward_no": 136,
    "ward_name": "Moula Ali",
    "circle_no": "XVII",
    "circle": "Malkajgiri",
    "zone": "North Zone",
    "population": 39946,
    "lat": 17.4548,
    "lng": 78.51898,
    "coordinate_confidence": "high"
  },
  {
    "ward_no": 137,
    "ward_name": "Safilguda",
    "circle_no": "XVII",
    "circle": "Malkajgiri",
    "zone": "North Zone",
    "population": 35891,
    "lat": 17.46208,
    "lng": 78.52592,
    "coordinate_confidence": "high"
  },
  {
    "ward_no": 138,
    "ward_name": "Gautham Nagar",
    "circle_no": "XVII",
    "circle": "Malkajgiri",
    "zone": "North Zone",
    "population": 38695,
    "lat": 17.4579,
    "lng": 78.52078,
    "coordinate_confidence": "high"
  },
  {
    "ward_no": 139,
    "ward_name": "Old Malkajgiri",
    "circle_no": "XVII",
    "circle": "Malkajgiri",
    "zone": "North Zone",
    "population": 38643,
    "lat": 17.45292,
    "lng": 78.53222,
    "coordinate_confidence": "high"
  },
  {
    "ward_no": 140,
    "ward_name": "Tarnaka",
    "circle_no": "XVIII",
    "circle": "Secunderabad Division",
    "zone": "North Zone",
    "population": 39326,
    "lat": 17.43506,
    "lng": 78.49134,
    "coordinate_confidence": "high"
  },
  {
    "ward_no": 141,
    "ward_name": "Mettuguda",
    "circle_no": "XVIII",
    "circle": "Secunderabad Division",
    "zone": "North Zone",
    "population": 33550,
    "lat": 17.44136,
    "lng": 78.50156,
    "coordinate_confidence": "high"
  },
  {
    "ward_no": 142,
    "ward_name": "Seethaphalmandi",
    "circle_no": "XVIII",
    "circle": "Secunderabad Division",
    "zone": "North Zone",
    "population": 36287,
    "lat": 17.43076,
    "lng": 78.49646,
    "coordinate_confidence": "high"
  },
  {
    "ward_no": 143,
    "ward_name": "Boudha Nagar",
    "circle_no": "XVIII",
    "circle": "Secunderabad Division",
    "zone": "North Zone",
    "population": 38408,
    "lat": 17.43334,
    "lng": 78.49418,
    "coordinate_confidence": "high"
  },
  {
    "ward_no": 144,
    "ward_name": "Chilkalguda",
    "circle_no": "XVIII",
    "circle": "Secunderabad Division",
    "zone": "North Zone",
    "population": 38657,
    "lat": 17.43724,
    "lng": 78.49858,
    "coordinate_confidence": "high"
  },
  {
    "ward_no": 145,
    "ward_name": "Padmarao Nagar",
    "circle_no": "XVIII",
    "circle": "Secunderabad Division",
    "zone": "North Zone",
    "population": 37172,
    "lat": 17.43456,
    "lng": 78.4952,
    "coordinate_confidence": "high"
  },
  {
    "ward_no": 146,
    "ward_name": "Bansilalpet",
    "circle_no": "XVIII",
    "circle": "Secunderabad Division",
    "zone": "North Zone",
    "population": 39252,
    "lat": 17.43862,
    "lng": 78.48866,
    "coordinate_confidence": "high"
  },
  {
    "ward_no": 147,
    "ward_name": "Ramgopal Pet",
    "circle_no": "XVIII",
    "circle": "Secunderabad Division",
    "zone": "North Zone",
    "population": 37495,
    "lat": 17.43878,
    "lng": 78.50038,
    "coordinate_confidence": "high"
  },
  {
    "ward_no": 148,
    "ward_name": "Begumpet",
    "circle_no": "XVIII",
    "circle": "Secunderabad Division",
    "zone": "North Zone",
    "population": 38367,
    "lat": 17.43036,
    "lng": 78.49662,
    "coordinate_confidence": "high"
  },
  {
    "ward_no": 149,
    "ward_name": "Marredpally",
    "circle_no": "XVIII",
    "circle": "Secunderabad Division",
    "zone": "North Zone",
    "population": 33624,
    "lat": 17.4322,
    "lng": 78.49878,
    "coordinate_confidence": "high"
  },
  {
    "ward_no": 150,
    "ward_name": "Addagutta",
    "circle_no": "XVIII",
    "circle": "Secunderabad Division",
    "zone": "North Zone",
    "population": 37461,
    "lat": 17.4467,
    "lng": 78.4927,
    "coordinate_confidence": "high"
  }
]